{
"type": "FeatureCollection",
"name": "real_subway_stations_manhattan",
"crs": { "type": "name", "properties": { "name": "urn:ogc:def:crs:OGC:1.3:CRS84" } },
"features": [
{ "type": "Feature", "properties": { "NYCT_ID": 1000, "STATION_ID": 330, "OBJECTID": 87774, "station_name": "IRT-1-BROADWAY/ 7 AVENUE LINE", "line_name": "BROADWAY/7TH AVE LINE" }, "geometry": { "type": "Point", "coordinates": [ -74.013206302148404, 40.701419237176403 ] } },
{ "type": "Feature", "properties": { "NYCT_ID": 1382, "STATION_ID": 23, "OBJECTID": 87777, "station_name": "BMT-NL-R-WP-WHITEHALL ST", "line_name": "BROADWAY LINE" }, "geometry": { "type": "Point", "coordinates": [ -74.013005316003003, 40.703133795196301 ] } },
{ "type": "Feature", "properties": { "NYCT_ID": 1101, "STATION_ID": 414, "OBJECTID": 87775, "station_name": "IRT-4-5P-BOWLING GREEN", "line_name": "LEXINGTON AVE" }, "geometry": { "type": "Point", "coordinates": [ -74.014027169976302, 40.704925389031203 ] } },
{ "type": "Feature", "properties": { "NYCT_ID": 1308, "STATION_ID": 107, "OBJECTID": 87784, "station_name": "BMT-J-ZR-BROAD ST", "line_name": "NASSAU ST LINE" }, "geometry": { "type": "Point", "coordinates": [ -74.011068384592306, 40.706487320345403 ] } },
{ "type": "Feature", "properties": { "NYCT_ID": 1071, "STATION_ID": 333, "OBJECTID": 87786, "station_name": "IRT-2-3P-WALL ST", "line_name": "CLARK ST LINE" }, "geometry": { "type": "Point", "coordinates": [ -74.009108295538198, 40.706832559031497 ] } },
{ "type": "Feature", "properties": { "NYCT_ID": 1001, "STATION_ID": 329, "OBJECTID": 87781, "station_name": "IRT-1-RECTOR ST", "line_name": "BROADWAY/7TH AVE LINE" }, "geometry": { "type": "Point", "coordinates": [ -74.013788293805206, 40.707522175549201 ] } },
{ "type": "Feature", "properties": { "NYCT_ID": 1102, "STATION_ID": 413, "OBJECTID": 87776, "station_name": "IRT-4-5P-WALL ST", "line_name": "LEXINGTON AVE" }, "geometry": { "type": "Point", "coordinates": [ -74.011863388211495, 40.707565341674702 ] } },
{ "type": "Feature", "properties": { "NYCT_ID": 1381, "STATION_ID": 22, "OBJECTID": 87778, "station_name": "BMT-NL-RP-WP-RECTOR ST", "line_name": "BROADWAY LINE" }, "geometry": { "type": "Point", "coordinates": [ -74.012970344023202, 40.707767054718602 ] } },
{ "type": "Feature", "properties": { "NYCT_ID": 1311, "STATION_ID": 104, "OBJECTID": 87771, "station_name": "BMT-J-ZR-CANAL ST", "line_name": "NASSAU ST LINE" }, "geometry": { "type": "Point", "coordinates": [ -73.999848527776294, 40.718160957831003 ] } },
{ "type": "Feature", "properties": { "NYCT_ID": 1293, "STATION_ID": 231, "OBJECTID": 87790, "station_name": "IND-BP-D-GRAND ST", "line_name": "6TH AVE LINE" }, "geometry": { "type": "Point", "coordinates": [ -73.9937656598064, 40.718278175013097 ] } },
{ "type": "Feature", "properties": { "NYCT_ID": 1385, "STATION_ID": 19, "OBJECTID": 87793, "station_name": "BMT-N-Q-CANAL ST", "line_name": "LEXINGTON AVE" }, "geometry": { "type": "Point", "coordinates": [ -74.000529354858202, 40.718442779953598 ] } },
{ "type": "Feature", "properties": { "NYCT_ID": 1070, "STATION_ID": 332, "OBJECTID": 87758, "station_name": "IRT-2-3P-FULTON ST", "line_name": "CLARK ST LINE" }, "geometry": { "type": "Point", "coordinates": [ -74.006575434535605, 40.709425733666897 ] } },
{ "type": "Feature", "properties": { "NYCT_ID": 1217, "STATION_ID": 172, "OBJECTID": 87532, "station_name": "IND-A-CP-BROADWAY NASSAU ST", "line_name": "8TH AVE LINE" }, "geometry": { "type": "Point", "coordinates": [ -74.007694459641996, 40.710203023021897 ] } },
{ "type": "Feature", "properties": { "NYCT_ID": 1309, "STATION_ID": 106, "OBJECTID": 87769, "station_name": "BMT-J-ZR-FULTON ST", "line_name": "NASSAU ST LINE" }, "geometry": { "type": "Point", "coordinates": [ -74.007749808947395, 40.710225075752 ] } },
{ "type": "Feature", "properties": { "NYCT_ID": 1103, "STATION_ID": 412, "OBJECTID": 87783, "station_name": "IRT-4-5P-FULTON ST", "line_name": "LEXINGTON AVE" }, "geometry": { "type": "Point", "coordinates": [ -74.009510915774797, 40.710376489656603 ] } },
{ "type": "Feature", "properties": { "NYCT_ID": 1380, "STATION_ID": 21, "OBJECTID": 87785, "station_name": "BMT-NL-RP-WP-CORTLANDT ST", "line_name": "BROADWAY LINE" }, "geometry": { "type": "Point", "coordinates": [ -74.011145950846995, 40.710505681174403 ] } },
{ "type": "Feature", "properties": { "NYCT_ID": 1002, "STATION_ID": 328, "OBJECTID": 87782, "station_name": "IRT-1-CORTLANDT ST", "line_name": "BROADWAY/7TH AVE LINE" }, "geometry": { "type": "Point", "coordinates": [ -74.012167264118801, 40.711839960707898 ] } },
{ "type": "Feature", "properties": { "NYCT_ID": 1177, "STATION_ID": 171, "OBJECTID": 87765, "station_name": "IND-E-WORLD TRADE CENTER", "line_name": "8TH AVE LINE" }, "geometry": { "type": "Point", "coordinates": [ -74.009776056280401, 40.712587642915302 ] } },
{ "type": "Feature", "properties": { "NYCT_ID": 1069, "STATION_ID": 331, "OBJECTID": 87759, "station_name": "IRT-2-3P-PARK PL", "line_name": "CLARK ST LINE" }, "geometry": { "type": "Point", "coordinates": [ -74.008810514460393, 40.713061312663498 ] } },
{ "type": "Feature", "properties": { "NYCT_ID": 1104, "STATION_ID": 411, "OBJECTID": 87736, "station_name": "IRT-4-5P-6-6X- BROOKLYN BRIDGE", "line_name": "LEXINGTON AVE" }, "geometry": { "type": "Point", "coordinates": [ -74.004131208376094, 40.713072585997402 ] } },
{ "type": "Feature", "properties": { "NYCT_ID": 1310, "STATION_ID": 105, "OBJECTID": 87770, "station_name": "BMT-J-ZR-CHAMBERS ST", "line_name": "NASSAU ST LINE" }, "geometry": { "type": "Point", "coordinates": [ -74.003393078656799, 40.713265794216497 ] } },
{ "type": "Feature", "properties": { "NYCT_ID": 1114, "STATION_ID": 401, "OBJECTID": 87816, "station_name": "IRT-4L-6-6X-51 ST", "line_name": "LEXINGTON AVE" }, "geometry": { "type": "Point", "coordinates": [ -73.971921003683306, 40.757115116416401 ] } },
{ "type": "Feature", "properties": { "NYCT_ID": 1256, "STATION_ID": 275, "OBJECTID": 87804, "station_name": "IND E-FP-LEXINGTON AVE-53 STREET", "line_name": "QUEENS BLVD LINE" }, "geometry": { "type": "Point", "coordinates": [ -73.969052706953093, 40.757564938870701 ] } },
{ "type": "Feature", "properties": { "NYCT_ID": 1302, "STATION_ID": 222, "OBJECTID": 87522, "station_name": "IND-FL-MP-ROOSEVLT ISLAND", "line_name": "63RD ST LINE" }, "geometry": { "type": "Point", "coordinates": [ -73.953261286130498, 40.759153250986301 ] } },
{ "type": "Feature", "properties": { "NYCT_ID": 1115, "STATION_ID": 400, "OBJECTID": 87514, "station_name": "IRT-4-5P-6-6X-59 ST", "line_name": "LEXINGTON AVE" }, "geometry": { "type": "Point", "coordinates": [ -73.967968064551499, 40.762534165655701 ] } },
{ "type": "Feature", "properties": { "NYCT_ID": 1447, "STATION_ID": 119, "OBJECTID": 87807, "station_name": "BMT-L-1 AVE", "line_name": "14ST/CANARSIE LINE" }, "geometry": { "type": "Point", "coordinates": [ -73.981660400497006, 40.730991308874799 ] } },
{ "type": "Feature", "properties": { "NYCT_ID": 1446, "STATION_ID": 118, "OBJECTID": 87555, "station_name": "BMT-L-3 AVE", "line_name": "14ST/CANARSIE LINE" }, "geometry": { "type": "Point", "coordinates": [ -73.985753336601505, 40.732697918154798 ] } },
{ "type": "Feature", "properties": { "NYCT_ID": 1110, "STATION_ID": 405, "OBJECTID": 87860, "station_name": "IRT-4L-6-6X-23 ST", "line_name": "LEXINGTON AVE" }, "geometry": { "type": "Point", "coordinates": [ -73.986598901170098, 40.739872019288804 ] } },
{ "type": "Feature", "properties": { "NYCT_ID": 1111, "STATION_ID": 404, "OBJECTID": 87808, "station_name": "IRT-4L-6-6X-28 ST", "line_name": "LEXINGTON AVE" }, "geometry": { "type": "Point", "coordinates": [ -73.984263001999807, 40.7430773482752 ] } },
{ "type": "Feature", "properties": { "NYCT_ID": 1112, "STATION_ID": 403, "OBJECTID": 87809, "station_name": "IRT-4L-6-6X-33 ST", "line_name": "LEXINGTON AVE" }, "geometry": { "type": "Point", "coordinates": [ -73.9820762232996, 40.746088844518702 ] } },
{ "type": "Feature", "properties": { "NYCT_ID": 1158, "STATION_ID": 465, "OBJECTID": 87919, "station_name": "IRT-7-7X-GRAND CENTRAL", "line_name": "FLUSHING LINE" }, "geometry": { "type": "Point", "coordinates": [ -73.976038043824104, 40.751444787763901 ] } },
{ "type": "Feature", "properties": { "NYCT_ID": 1379, "STATION_ID": 20, "OBJECTID": 87772, "station_name": "BMT-NL-RP-WP-CITY HALL", "line_name": "BROADWAY LINE" }, "geometry": { "type": "Point", "coordinates": [ -74.0070437114193, 40.713281155724701 ] } },
{ "type": "Feature", "properties": { "NYCT_ID": 1216, "STATION_ID": 170, "OBJECTID": 87533, "station_name": "IND-A-CP-CHAMBERS ST", "line_name": "8TH AVE LINE" }, "geometry": { "type": "Point", "coordinates": [ -74.008585824365994, 40.714119063159998 ] } },
{ "type": "Feature", "properties": { "NYCT_ID": 1003, "STATION_ID": 327, "OBJECTID": 87760, "station_name": "IRT-1-2-3P-CHAMBERS STREET", "line_name": "BROADWAY/7TH AVE LINE" }, "geometry": { "type": "Point", "coordinates": [ -74.009271559253094, 40.715487797801103 ] } },
{ "type": "Feature", "properties": { "NYCT_ID": 1004, "STATION_ID": 326, "OBJECTID": 87787, "station_name": "IRT-1-2L-FRANKLIN ST", "line_name": "BROADWAY/7TH AVE LINE" }, "geometry": { "type": "Point", "coordinates": [ -74.006899782972098, 40.7193275359217 ] } },
{ "type": "Feature", "properties": { "NYCT_ID": 1378, "STATION_ID": 18, "OBJECTID": 87773, "station_name": "BMT-NL-RP-WP-CANAL ST", "line_name": "BROADWAY LINE" }, "geometry": { "type": "Point", "coordinates": [ -74.001827669303594, 40.719473558053899 ] } },
{ "type": "Feature", "properties": { "NYCT_ID": 1178, "STATION_ID": 169, "OBJECTID": 87766, "station_name": "IND-A-CP-E-CANAL ST", "line_name": "8TH AVE LINE" }, "geometry": { "type": "Point", "coordinates": [ -74.005229438133597, 40.720832281443599 ] } },
{ "type": "Feature", "properties": { "NYCT_ID": 1005, "STATION_ID": 325, "OBJECTID": 87757, "station_name": "IRT-1-2L-CANAL ST", "line_name": "BROADWAY/7TH AVE LINE" }, "geometry": { "type": "Point", "coordinates": [ -74.006264895406801, 40.722861197324001 ] } },
{ "type": "Feature", "properties": { "NYCT_ID": 1179, "STATION_ID": 168, "OBJECTID": 87749, "station_name": "IND-AL-CP-E-SPRING ST", "line_name": "8TH AVE LINE" }, "geometry": { "type": "Point", "coordinates": [ -74.003740831193994, 40.726235339831703 ] } },
{ "type": "Feature", "properties": { "NYCT_ID": 1006, "STATION_ID": 324, "OBJECTID": 87747, "station_name": "IRT-1-2L-HOUSTON ST", "line_name": "BROADWAY/7TH AVE LINE" }, "geometry": { "type": "Point", "coordinates": [ -74.005370168808298, 40.7282594424656 ] } },
{ "type": "Feature", "properties": { "NYCT_ID": 1007, "STATION_ID": 323, "OBJECTID": 87748, "station_name": "IRT-1-2L-CHRISTOPHER STREET", "line_name": "BROADWAY/7TH AVE LINE" }, "geometry": { "type": "Point", "coordinates": [ -74.002928366232297, 40.733435491266903 ] } },
{ "type": "Feature", "properties": { "NYCT_ID": 1305, "STATION_ID": 233, "OBJECTID": 87542, "station_name": "IND-F-DELANCEY ST", "line_name": "HOUSTON/ESSEX ST LINE" }, "geometry": { "type": "Point", "coordinates": [ -73.988131611687805, 40.7187021139408 ] } },
{ "type": "Feature", "properties": { "NYCT_ID": 1105, "STATION_ID": 410, "OBJECTID": 87530, "station_name": "IRT-4L-6-6X-CANAL ST", "line_name": "LEXINGTON AVE" }, "geometry": { "type": "Point", "coordinates": [ -74.000194972531105, 40.718811539641798 ] } },
{ "type": "Feature", "properties": { "NYCT_ID": 1312, "STATION_ID": 103, "OBJECTID": 87792, "station_name": "BMT-J-ZR-BOWERY", "line_name": "NASSAU ST LINE" }, "geometry": { "type": "Point", "coordinates": [ -73.993829615280802, 40.720260030829202 ] } },
{ "type": "Feature", "properties": { "NYCT_ID": 1106, "STATION_ID": 409, "OBJECTID": 87531, "station_name": "IRT-4L-6-6X-SPRING ST", "line_name": "LEXINGTON AVE" }, "geometry": { "type": "Point", "coordinates": [ -73.997129140471003, 40.7223031575842 ] } },
{ "type": "Feature", "properties": { "NYCT_ID": 1304, "STATION_ID": 232, "OBJECTID": 87543, "station_name": "IND-F-LOWER EAST SIDE-2 AVENUE", "line_name": "HOUSTON/ESSEX ST LINE" }, "geometry": { "type": "Point", "coordinates": [ -73.989862153024802, 40.723393694783702 ] } },
{ "type": "Feature", "properties": { "NYCT_ID": 1377, "STATION_ID": 17, "OBJECTID": 87755, "station_name": "BMT-NP-QL-RP-WP-PRINCE ST", "line_name": "BROADWAY LINE" }, "geometry": { "type": "Point", "coordinates": [ -73.997711476280699, 40.724331631033202 ] } },
{ "type": "Feature", "properties": { "NYCT_ID": 1294, "STATION_ID": 230, "OBJECTID": 87791, "station_name": "IND-BP-D-F-MP-BROADWAY", "line_name": "HOUSTON/ESSEX ST LINE" }, "geometry": { "type": "Point", "coordinates": [ -73.996206224971004, 40.725303319025699 ] } },
{ "type": "Feature", "properties": { "NYCT_ID": 1107, "STATION_ID": 408, "OBJECTID": 87857, "station_name": "IRT-4L-6-6X-BLEECKER STREET", "line_name": "LEXINGTON AVE" }, "geometry": { "type": "Point", "coordinates": [ -73.994661761217003, 40.725923883788901 ] } },
{ "type": "Feature", "properties": { "NYCT_ID": 1108, "STATION_ID": 407, "OBJECTID": 87858, "station_name": "IRT-4L-6-6X-ASTOR PL", "line_name": "LEXINGTON AVE" }, "geometry": { "type": "Point", "coordinates": [ -73.991066545743706, 40.730060271251297 ] } },
{ "type": "Feature", "properties": { "NYCT_ID": 1376, "STATION_ID": 16, "OBJECTID": 87756, "station_name": "BMT-NP-QL-RP-WP-8 ST-NYU", "line_name": "BROADWAY LINE" }, "geometry": { "type": "Point", "coordinates": [ -73.992514370414597, 40.730474754003602 ] } },
{ "type": "Feature", "properties": { "NYCT_ID": 1180, "STATION_ID": 167, "OBJECTID": 87750, "station_name": "IND-A-BP-CP-D-E-F-MP-W 4 ST", "line_name": "8TH AVE LINE" }, "geometry": { "type": "Point", "coordinates": [ -74.000495661831494, 40.732346005899501 ] } },
{ "type": "Feature", "properties": { "NYCT_ID": 1109, "STATION_ID": 406, "OBJECTID": 87859, "station_name": "IRT-4-5P-6-6X-14 ST-UNION SQ", "line_name": "LEXINGTON AVE" }, "geometry": { "type": "Point", "coordinates": [ -73.989934352565598, 40.734682088396802 ] } },
{ "type": "Feature", "properties": { "NYCT_ID": 1445, "STATION_ID": 117, "OBJECTID": 87556, "station_name": "BMT-L-UNION SQ-14 STREET", "line_name": "14ST/CANARSIE LINE" }, "geometry": { "type": "Point", "coordinates": [ -73.990834295199306, 40.734877730102298 ] } },
{ "type": "Feature", "properties": { "NYCT_ID": 1375, "STATION_ID": 15, "OBJECTID": 87551, "station_name": "BMT-N-Q-RP-WP-14 ST-UNION SQUARE", "line_name": "BROADWAY LINE" }, "geometry": { "type": "Point", "coordinates": [ -73.9905674130043, 40.735865930197299 ] } },
{ "type": "Feature", "properties": { "NYCT_ID": 1444, "STATION_ID": 116, "OBJECTID": 87870, "station_name": "BMT-L-6 AVE", "line_name": "14ST/CANARSIE LINE" }, "geometry": { "type": "Point", "coordinates": [ -73.997722615517503, 40.737738359515397 ] } },
{ "type": "Feature", "properties": { "NYCT_ID": 1008, "STATION_ID": 322, "OBJECTID": 87866, "station_name": "IRT-1-2-3P-14 STREET", "line_name": "BROADWAY/7TH AVE LINE" }, "geometry": { "type": "Point", "coordinates": [ -74.000210756210294, 40.737837086345998 ] } },
{ "type": "Feature", "properties": { "NYCT_ID": 1295, "STATION_ID": 229, "OBJECTID": 87869, "station_name": "IND-F-MP-14 ST", "line_name": "6TH AVE LINE" }, "geometry": { "type": "Point", "coordinates": [ -73.996206561551205, 40.738234650957097 ] } },
{ "type": "Feature", "properties": { "NYCT_ID": 1181, "STATION_ID": 166, "OBJECTID": 87872, "station_name": "IND-A-CP-E-14 ST", "line_name": "8TH AVE LINE" }, "geometry": { "type": "Point", "coordinates": [ -74.001692722139694, 40.740901756934697 ] } },
{ "type": "Feature", "properties": { "NYCT_ID": 1009, "STATION_ID": 321, "OBJECTID": 87867, "station_name": "IRT-1-2L-18 ST", "line_name": "BROADWAY/7TH AVE LINE" }, "geometry": { "type": "Point", "coordinates": [ -73.9978739641803, 40.741048936141901 ] } },
{ "type": "Feature", "properties": { "NYCT_ID": 1374, "STATION_ID": 14, "OBJECTID": 87552, "station_name": "BMT-NP-QL-RP-WP-23 STREET", "line_name": "BROADWAY LINE" }, "geometry": { "type": "Point", "coordinates": [ -73.9893728365995, 40.7412857745894 ] } },
{ "type": "Feature", "properties": { "NYCT_ID": 1443, "STATION_ID": 115, "OBJECTID": 87871, "station_name": "BMT-L-8 AVE", "line_name": "8TH AVE LINE" }, "geometry": { "type": "Point", "coordinates": [ -74.002480380242602, 40.739822208608103 ] } },
{ "type": "Feature", "properties": { "NYCT_ID": 1296, "STATION_ID": 228, "OBJECTID": 87537, "station_name": "IND-F-MP-23 ST", "line_name": "6TH AVE LINE" }, "geometry": { "type": "Point", "coordinates": [ -73.992805666160095, 40.742916936870301 ] } },
{ "type": "Feature", "properties": { "NYCT_ID": 1010, "STATION_ID": 320, "OBJECTID": 87861, "station_name": "IRT-1-2L-23 ST", "line_name": "BROADWAY/7TH AVE LINE" }, "geometry": { "type": "Point", "coordinates": [ -73.9956588187557, 40.744089424159498 ] } },
{ "type": "Feature", "properties": { "NYCT_ID": 1373, "STATION_ID": 13, "OBJECTID": 87805, "station_name": "BMT-NP-QL-RP-WP-28 ST", "line_name": "BROADWAY LINE" }, "geometry": { "type": "Point", "coordinates": [ -73.9886996732249, 40.745461670000303 ] } },
{ "type": "Feature", "properties": { "NYCT_ID": 1182, "STATION_ID": 165, "OBJECTID": 87863, "station_name": "IND-AL-CP-E-23 ST", "line_name": "8TH AVE LINE" }, "geometry": { "type": "Point", "coordinates": [ -73.998042443919701, 40.745914313928303 ] } },
{ "type": "Feature", "properties": { "NYCT_ID": 1011, "STATION_ID": 319, "OBJECTID": 87862, "station_name": "IRT-1-2L-28 ST", "line_name": "BROADWAY/7TH AVE LINE" }, "geometry": { "type": "Point", "coordinates": [ -73.993373321938407, 40.747225769648303 ] } },
{ "type": "Feature", "properties": { "NYCT_ID": 1372, "STATION_ID": 12, "OBJECTID": 87806, "station_name": "BMT-N-Q-RP-WP-34 ST-HERALD SQ", "line_name": "BROADWAY LINE" }, "geometry": { "type": "Point", "coordinates": [ -73.987964309796197, 40.749603852463402 ] } },
{ "type": "Feature", "properties": { "NYCT_ID": 1297, "STATION_ID": 227, "OBJECTID": 87538, "station_name": "IND-BP-D-F-MP-34 ST-HERALD SQ", "line_name": "6TH AVE LINE" }, "geometry": { "type": "Point", "coordinates": [ -73.9877844862649, 40.749775361044698 ] } },
{ "type": "Feature", "properties": { "NYCT_ID": 1012, "STATION_ID": 318, "OBJECTID": 87528, "station_name": "IRT-1-2-3P-34 STREET", "line_name": "BROADWAY/7TH AVE LINE" }, "geometry": { "type": "Point", "coordinates": [ -73.991069435362903, 40.750385174520602 ] } },
{ "type": "Feature", "properties": { "NYCT_ID": 1183, "STATION_ID": 164, "OBJECTID": 87864, "station_name": "IND-A-CP-E-34 ST-PENN STATION", "line_name": "8TH AVE LINE" }, "geometry": { "type": "Point", "coordinates": [ -73.993394159555706, 40.7522958858967 ] } },
{ "type": "Feature", "properties": { "NYCT_ID": 1013, "STATION_ID": 317, "OBJECTID": 87529, "station_name": "IRT-1-2-3-TIMES SQ-42 STREET", "line_name": "BROADWAY/7TH AVE LINE" }, "geometry": { "type": "Point", "coordinates": [ -73.987504857720097, 40.755301180887002 ] } },
{ "type": "Feature", "properties": { "NYCT_ID": 1156, "STATION_ID": 467, "OBJECTID": 87812, "station_name": "IRT-7-7X-TIMES SQ", "line_name": "BROADWAY/7TH AVE LINE" }, "geometry": { "type": "Point", "coordinates": [ -73.987447719577702, 40.755381209222101 ] } },
{ "type": "Feature", "properties": { "NYCT_ID": 1184, "STATION_ID": 163, "OBJECTID": 87534, "station_name": "IND-A-CP-E-42 ST", "line_name": "8TH AVE LINE" }, "geometry": { "type": "Point", "coordinates": [ -73.989737086864693, 40.757316519482998 ] } },
{ "type": "Feature", "properties": { "NYCT_ID": 1113, "STATION_ID": 402, "OBJECTID": 87725, "station_name": "IRT-4-5P-6-6X-GRND CTL 42 ST", "line_name": "FLUSHING LINE" }, "geometry": { "type": "Point", "coordinates": [ -73.976849928879403, 40.751783537100799 ] } },
{ "type": "Feature", "properties": { "NYCT_ID": 1098, "STATION_ID": 469, "OBJECTID": 87810, "station_name": "IRT-SP-GRAND CENTRAL", "line_name": "42ND ST SHUTTLE LINE" }, "geometry": { "type": "Point", "coordinates": [ -73.979195451979805, 40.752769905403802 ] } },
{ "type": "Feature", "properties": { "NYCT_ID": 1157, "STATION_ID": 466, "OBJECTID": 87813, "station_name": "IRT-7-7X-5 AVE", "line_name": "FLUSHING LINE" }, "geometry": { "type": "Point", "coordinates": [ -73.981968873239495, 40.753823030575802 ] } },
{ "type": "Feature", "properties": { "NYCT_ID": 1298, "STATION_ID": 226, "OBJECTID": 87814, "station_name": "IND-BP-D-F-MP-42 ST", "line_name": "6TH AVE LINE" }, "geometry": { "type": "Point", "coordinates": [ -73.984591931011906, 40.754192433089003 ] } },
{ "type": "Feature", "properties": { "NYCT_ID": 1371, "STATION_ID": 11, "OBJECTID": 87815, "station_name": "BMT-N-Q-RP-WP-TIMES SQ", "line_name": "BROADWAY LINE" }, "geometry": { "type": "Point", "coordinates": [ -73.986773144684506, 40.754622718679798 ] } },
{ "type": "Feature", "properties": { "NYCT_ID": 1099, "STATION_ID": 468, "OBJECTID": 87811, "station_name": "IRT-SP-TIMES SQ", "line_name": "BROADWAY LINE" }, "geometry": { "type": "Point", "coordinates": [ -73.986343637497697, 40.756008915312599 ] } },
{ "type": "Feature", "properties": { "NYCT_ID": 1299, "STATION_ID": 225, "OBJECTID": 87519, "station_name": "IND-BP-D-F-MP-47 ST-50 ST", "line_name": "6TH AVE LINE" }, "geometry": { "type": "Point", "coordinates": [ -73.981342366406295, 40.758653547916197 ] } },
{ "type": "Feature", "properties": { "NYCT_ID": 1370, "STATION_ID": 10, "OBJECTID": 87524, "station_name": "BMT-N-QL-RP-WP-49 ST", "line_name": "BROADWAY LINE" }, "geometry": { "type": "Point", "coordinates": [ -73.984219616952203, 40.759788775519297 ] } },
{ "type": "Feature", "properties": { "NYCT_ID": 1255, "STATION_ID": 276, "OBJECTID": 87803, "station_name": "IND-E-MP-5 AVE-53 ST", "line_name": "QUEENS BLVD LINE" }, "geometry": { "type": "Point", "coordinates": [ -73.975228062138896, 40.760171911355897 ] } },
{ "type": "Feature", "properties": { "NYCT_ID": 1014, "STATION_ID": 316, "OBJECTID": 87512, "station_name": "IRT-1-2L-50 ST", "line_name": "BROADWAY/7TH AVE LINE" }, "geometry": { "type": "Point", "coordinates": [ -73.983850907987005, 40.761736320145197 ] } },
{ "type": "Feature", "properties": { "NYCT_ID": 1185, "STATION_ID": 162, "OBJECTID": 87517, "station_name": "IND-AL-CP-E-50 ST", "line_name": "8TH AVE LINE" }, "geometry": { "type": "Point", "coordinates": [ -73.985984186858104, 40.762463797075903 ] } },
{ "type": "Feature", "properties": { "NYCT_ID": 1254, "STATION_ID": 277, "OBJECTID": 87518, "station_name": "IND-BP-D-E-7 AVE", "line_name": "QUEENS BLVD LINE" }, "geometry": { "type": "Point", "coordinates": [ -73.981639594777505, 40.762868629864897 ] } },
{ "type": "Feature", "properties": { "NYCT_ID": 1300, "STATION_ID": 224, "OBJECTID": 87520, "station_name": "IND-FL-MP-57 STREET", "line_name": "6TH AVE LINE" }, "geometry": { "type": "Point", "coordinates": [ -73.977369955237705, 40.764093384876702 ] } },
{ "type": "Feature", "properties": { "NYCT_ID": 1369, "STATION_ID": 9, "OBJECTID": 87525, "station_name": "BMT-N-Q-RP-WP-57 STREET", "line_name": "BROADWAY LINE" }, "geometry": { "type": "Point", "coordinates": [ -73.980732577832597, 40.7645728479363 ] } },
{ "type": "Feature", "properties": { "NYCT_ID": 1368, "STATION_ID": 8, "OBJECTID": 87526, "station_name": "BMT-N-RP-WP-5 AV-59 STREET", "line_name": "ASTORIA LINE" }, "geometry": { "type": "Point", "coordinates": [ -73.973350095093807, 40.764828590504102 ] } },
{ "type": "Feature", "properties": { "NYCT_ID": 1015, "STATION_ID": 315, "OBJECTID": 87513, "station_name": "IRT-1-2L-59 ST", "line_name": "BROADWAY/7TH AVE LINE" }, "geometry": { "type": "Point", "coordinates": [ -73.981983469819895, 40.768246716210101 ] } },
{ "type": "Feature", "properties": { "NYCT_ID": 1186, "STATION_ID": 161, "OBJECTID": 87523, "station_name": "IND-A-BP-CP-D-59 ST-COLUMBUS CI", "line_name": "8TH AVE LINE" }, "geometry": { "type": "Point", "coordinates": [ -73.981743492828301, 40.768306030279902 ] } },
{ "type": "Feature", "properties": { "NYCT_ID": 1016, "STATION_ID": 314, "OBJECTID": 87847, "station_name": "IRT-1-2L-66 ST-LINCOLN CENTER", "line_name": "BROADWAY/7TH AVE LINE" }, "geometry": { "type": "Point", "coordinates": [ -73.982212575889207, 40.773448243630099 ] } },
{ "type": "Feature", "properties": { "NYCT_ID": 1187, "STATION_ID": 160, "OBJECTID": 87845, "station_name": "IND-AL-BP-CP-72 ST", "line_name": "8TH AVE LINE" }, "geometry": { "type": "Point", "coordinates": [ -73.976413389844396, 40.775602911337202 ] } },
{ "type": "Feature", "properties": { "NYCT_ID": 1017, "STATION_ID": 313, "OBJECTID": 87842, "station_name": "IRT-1-2-3-72 STREET", "line_name": "BROADWAY/7TH AVE LINE" }, "geometry": { "type": "Point", "coordinates": [ -73.981985067652502, 40.778444800378402 ] } },
{ "type": "Feature", "properties": { "NYCT_ID": 1367, "STATION_ID": 7, "OBJECTID": 87527, "station_name": "BMT-N-RP-WP-LEX AV-59 ST", "line_name": "ASTORIA LINE" }, "geometry": { "type": "Point", "coordinates": [ -73.967367408193397, 40.7627081923088 ] } },
{ "type": "Feature", "properties": { "NYCT_ID": 1301, "STATION_ID": 223, "OBJECTID": 87521, "station_name": "IND-FL-MP-Q-LEXINGTON AVE-63 ST", "line_name": "63RD ST LINE" }, "geometry": { "type": "Point", "coordinates": [ -73.966096311213306, 40.764628885695103 ] } },
{ "type": "Feature", "properties": { "NYCT_ID": 1116, "STATION_ID": 399, "OBJECTID": 87515, "station_name": "IRT-4L-6-6X-68 ST", "line_name": "LEXINGTON AVE" }, "geometry": { "type": "Point", "coordinates": [ -73.963872077194296, 40.768149552081198 ] } },
{ "type": "Feature", "properties": { "NYCT_ID": 1117, "STATION_ID": 398, "OBJECTID": 87836, "station_name": "IRT-4L-6-6X-77 ST", "line_name": "LEXINGTON AVE" }, "geometry": { "type": "Point", "coordinates": [ -73.959874828042103, 40.773628064675499 ] } },
{ "type": "Feature", "properties": { "NYCT_ID": 1188, "STATION_ID": 159, "OBJECTID": 87846, "station_name": "IND-AL-BP-CP-81 ST", "line_name": "8TH AVE LINE" }, "geometry": { "type": "Point", "coordinates": [ -73.972156003568202, 40.781435654113103 ] } },
{ "type": "Feature", "properties": { "NYCT_ID": 1189, "STATION_ID": 158, "OBJECTID": 87850, "station_name": "IND-AL-BP-CP-86 ST", "line_name": "8TH AVE LINE" }, "geometry": { "type": "Point", "coordinates": [ -73.968917547666905, 40.785876345327999 ] } },
{ "type": "Feature", "properties": { "NYCT_ID": 1018, "STATION_ID": 312, "OBJECTID": 87843, "station_name": "IRT-1-2L-79 ST", "line_name": "BROADWAY/7TH AVE LINE" }, "geometry": { "type": "Point", "coordinates": [ -73.979919517885193, 40.783942700658699 ] } },
{ "type": "Feature", "properties": { "NYCT_ID": 1019, "STATION_ID": 311, "OBJECTID": 87844, "station_name": "IRT-1-2L-86 ST", "line_name": "BROADWAY/7TH AVE LINE" }, "geometry": { "type": "Point", "coordinates": [ -73.9762167900913, 40.788650940511801 ] } },
{ "type": "Feature", "properties": { "NYCT_ID": 1190, "STATION_ID": 157, "OBJECTID": 87851, "station_name": "IND-AL-BP-CP-96 ST", "line_name": "8TH AVE LINE" }, "geometry": { "type": "Point", "coordinates": [ -73.964699942734597, 40.7916541366546 ] } },
{ "type": "Feature", "properties": { "NYCT_ID": 1020, "STATION_ID": 310, "OBJECTID": 87833, "station_name": "IRT-1-2-3-96 STREET", "line_name": "BROADWAY/7TH AVE LINE" }, "geometry": { "type": "Point", "coordinates": [ -73.972326627949201, 40.7939280390232 ] } },
{ "type": "Feature", "properties": { "NYCT_ID": 1191, "STATION_ID": 156, "OBJECTID": 87840, "station_name": "IND-AL-BP-CP-103 ST", "line_name": "8TH AVE LINE" }, "geometry": { "type": "Point", "coordinates": [ -73.961455530316101, 40.796100337961697 ] } },
{ "type": "Feature", "properties": { "NYCT_ID": 1038, "STATION_ID": 441, "OBJECTID": 87835, "station_name": "IRT-2-3-CENTRAL PARK N", "line_name": "LENOX AVE LINE" }, "geometry": { "type": "Point", "coordinates": [ -73.9518274138306, 40.799084733666703 ] } },
{ "type": "Feature", "properties": { "NYCT_ID": 1021, "STATION_ID": 309, "OBJECTID": 87834, "station_name": "IRT-1-103 ST", "line_name": "BROADWAY/7TH AVE LINE" }, "geometry": { "type": "Point", "coordinates": [ -73.968370924836407, 40.799451688091501 ] } },
{ "type": "Feature", "properties": { "NYCT_ID": 1192, "STATION_ID": 155, "OBJECTID": 87841, "station_name": "IND-AL-BP-CP-CATHEDRAL PY", "line_name": "8TH AVE LINE" }, "geometry": { "type": "Point", "coordinates": [ -73.958158100237398, 40.800612829927402 ] } },
{ "type": "Feature", "properties": { "NYCT_ID": 1022, "STATION_ID": 308, "OBJECTID": 87852, "station_name": "IRT-1-CATHEDRAL PKWY", "line_name": "BROADWAY/7TH AVE LINE" }, "geometry": { "type": "Point", "coordinates": [ -73.966849777407006, 40.803975732813399 ] } },
{ "type": "Feature", "properties": { "NYCT_ID": 1193, "STATION_ID": 154, "OBJECTID": 87753, "station_name": "IND-AL-BP-CP-116 ST", "line_name": "8TH AVE LINE" }, "geometry": { "type": "Point", "coordinates": [ -73.954884199664093, 40.805093629993301 ] } },
{ "type": "Feature", "properties": { "NYCT_ID": 1023, "STATION_ID": 307, "OBJECTID": 87853, "station_name": "IRT-1-116 ST", "line_name": "BROADWAY/7TH AVE LINE" }, "geometry": { "type": "Point", "coordinates": [ -73.964108547556194, 40.807728775462301 ] } },
{ "type": "Feature", "properties": { "NYCT_ID": 1194, "STATION_ID": 153, "OBJECTID": 87754, "station_name": "IND-A-BP-CP-D-125 ST", "line_name": "8TH AVE LINE" }, "geometry": { "type": "Point", "coordinates": [ -73.952344057906899, 40.811117175859401 ] } },
{ "type": "Feature", "properties": { "NYCT_ID": 1039, "STATION_ID": 440, "OBJECTID": 87614, "station_name": "IRT-2-3-116 ST", "line_name": "LENOX AVE LINE" }, "geometry": { "type": "Point", "coordinates": [ -73.949626877463402, 40.802106478220601 ] } },
{ "type": "Feature", "properties": { "NYCT_ID": 1195, "STATION_ID": 152, "OBJECTID": 87868, "station_name": "IND-AL-BP-CP-135 ST", "line_name": "8TH AVE LINE" }, "geometry": { "type": "Point", "coordinates": [ -73.947649817813797, 40.817902119961303 ] } },
{ "type": "Feature", "properties": { "NYCT_ID": 1196, "STATION_ID": 151, "OBJECTID": 87560, "station_name": "IND-A-BP-CP-D-145 ST", "line_name": "8TH AVE LINE" }, "geometry": { "type": "Point", "coordinates": [ -73.944213787196006, 40.824789824418801 ] } },
{ "type": "Feature", "properties": { "NYCT_ID": 1024, "STATION_ID": 306, "OBJECTID": 87475, "station_name": "IRT-1-125 ST", "line_name": "BROADWAY/7TH AVE LINE" }, "geometry": { "type": "Point", "coordinates": [ -73.958374076434794, 40.815589494393798 ] } },
{ "type": "Feature", "properties": { "NYCT_ID": 1025, "STATION_ID": 305, "OBJECTID": 87617, "station_name": "IRT-1-137 ST", "line_name": "BROADWAY/7TH AVE LINE" }, "geometry": { "type": "Point", "coordinates": [ -73.953678912806595, 40.822016762379697 ] } },
{ "type": "Feature", "properties": { "NYCT_ID": 1026, "STATION_ID": 304, "OBJECTID": 87831, "station_name": "IRT-1-145 ST", "line_name": "BROADWAY/7TH AVE LINE" }, "geometry": { "type": "Point", "coordinates": [ -73.950361348601206, 40.826559282143101 ] } },
{ "type": "Feature", "properties": { "NYCT_ID": 1197, "STATION_ID": 150, "OBJECTID": 87767, "station_name": "IND-AL-CP-155 ST", "line_name": "8TH AVE LINE" }, "geometry": { "type": "Point", "coordinates": [ -73.941520923694995, 40.830527370765601 ] } },
{ "type": "Feature", "properties": { "NYCT_ID": 1027, "STATION_ID": 303, "OBJECTID": 87832, "station_name": "IRT-1-157 ST", "line_name": "BROADWAY/7TH AVE LINE" }, "geometry": { "type": "Point", "coordinates": [ -73.9448938108264, 40.834050113343302 ] } },
{ "type": "Feature", "properties": { "NYCT_ID": 1198, "STATION_ID": 149, "OBJECTID": 87768, "station_name": "IND-AL-CP-163 ST-AMSTERDAM AVE", "line_name": "8TH AVE LINE" }, "geometry": { "type": "Point", "coordinates": [ -73.939936012516299, 40.836016706631199 ] } },
{ "type": "Feature", "properties": { "NYCT_ID": 1028, "STATION_ID": 302, "OBJECTID": 87623, "station_name": "IRT-1-168 ST", "line_name": "BROADWAY/7TH AVE LINE" }, "geometry": { "type": "Point", "coordinates": [ -73.940141426496794, 40.840566477532498 ] } },
{ "type": "Feature", "properties": { "NYCT_ID": 1199, "STATION_ID": 148, "OBJECTID": 87625, "station_name": "IND-A-CP-WASHINGTON HTS-168 ST", "line_name": "8TH AVE LINE" }, "geometry": { "type": "Point", "coordinates": [ -73.939545906954606, 40.840724349450802 ] } },
{ "type": "Feature", "properties": { "NYCT_ID": 1200, "STATION_ID": 147, "OBJECTID": 87627, "station_name": "IND-A-175 ST", "line_name": "8TH AVE LINE" }, "geometry": { "type": "Point", "coordinates": [ -73.939706353817201, 40.847399432946801 ] } },
{ "type": "Feature", "properties": { "NYCT_ID": 1029, "STATION_ID": 301, "OBJECTID": 87624, "station_name": "IRT-1-181 ST", "line_name": "BROADWAY/7TH AVE LINE" }, "geometry": { "type": "Point", "coordinates": [ -73.933597123413804, 40.8495132050151 ] } },
{ "type": "Feature", "properties": { "NYCT_ID": 1201, "STATION_ID": 146, "OBJECTID": 87751, "station_name": "IND-A-181 ST", "line_name": "8TH AVE LINE" }, "geometry": { "type": "Point", "coordinates": [ -73.937984808169304, 40.851706091964502 ] } },
{ "type": "Feature", "properties": { "NYCT_ID": 1030, "STATION_ID": 300, "OBJECTID": 87626, "station_name": "IRT-1-191 ST", "line_name": "BROADWAY/7TH AVE LINE" }, "geometry": { "type": "Point", "coordinates": [ -73.929413295782894, 40.855233273862297 ] } },
{ "type": "Feature", "properties": { "NYCT_ID": 1202, "STATION_ID": 145, "OBJECTID": 87752, "station_name": "IND-A-190 ST", "line_name": "8TH AVE LINE" }, "geometry": { "type": "Point", "coordinates": [ -73.934282164378203, 40.859056853559402 ] } },
{ "type": "Feature", "properties": { "NYCT_ID": 1203, "STATION_ID": 144, "OBJECTID": 87789, "station_name": "IND-A-DYCKMAN ST", "line_name": "8TH AVE LINE" }, "geometry": { "type": "Point", "coordinates": [ -73.927297526803102, 40.865527853491301 ] } }
]
}
